[
  {
    "id": "gas-001",
    "type": "gas",
    "name": "中油 嘉義中山路站",
    "category": "中油",
    "address": "嘉義市中山路345號",
    "hours": "24 小時",
    "tags": ["24小時", "市區"],
    "fuelTypes": ["92無鉛", "95無鉛", "98無鉛", "柴油"],
    "image": "gas-station",
    "lat": 23.4779,
    "lng": 120.4523,
    "description": "鄰近嘉義市區,24 小時營業,適合市區內加油補給。"
  },
  {
    "id": "gas-002",
    "type": "gas",
    "name": "台塑 嘉朴公路站",
    "category": "台塑",
    "address": "嘉義縣朴子市嘉朴路二段88號",
    "hours": "06:00–23:00",
    "tags": ["公路", "往朴子"],
    "fuelTypes": ["92無鉛", "95無鉛", "98無鉛", "柴油"],
    "image": "gas-station",
    "lat": 23.4632,
    "lng": 120.3251,
    "description": "位於往朴子、東石方向公路旁,自駕前往濱海景點前可先加滿油。"
  },
  {
    "id": "gas-003",
    "type": "gas",
    "name": "中油 阿里山公路站(觸口)",
    "category": "中油",
    "address": "嘉義縣番路鄉觸口村台18線旁",
    "hours": "06:30–21:00",
    "tags": ["阿里山公路", "上山前最後一站"],
    "fuelTypes": ["92無鉛", "95無鉛", "柴油"],
    "image": "gas-station",
    "lat": 23.4451,
    "lng": 120.6198,
    "description": "上阿里山前的最後補給點,建議自駕遊客在此確認油量充足後再上山。"
  },
  {
    "id": "gas-004",
    "type": "gas",
    "name": "全國加油站 民生北路站",
    "category": "全國",
    "address": "嘉義市民生北路210號",
    "hours": "24 小時",
    "tags": ["24小時", "市區"],
    "fuelTypes": ["92無鉛", "95無鉛", "98無鉛"],
    "image": "gas-station",
    "lat": 23.4841,
    "lng": 120.4472,
    "description": "鄰近嘉義火車站商圈,24 小時營業,進出市區順路可加油。"
  },
  {
    "id": "gas-005",
    "type": "gas",
    "name": "中油 高鐵嘉義站聯外站",
    "category": "中油",
    "address": "嘉義縣太保市高鐵西路旁",
    "hours": "24 小時",
    "tags": ["高鐵周邊", "24小時"],
    "fuelTypes": ["92無鉛", "95無鉛", "98無鉛", "柴油"],
    "image": "gas-station",
    "lat": 23.4586,
    "lng": 120.3196,
    "description": "鄰近高鐵嘉義站,租還車或自駕轉乘高鐵前後皆方便加油。"
  },
  {
    "id": "gas-006",
    "type": "gas",
    "name": "中油 民雄中樂站",
    "category": "中油",
    "address": "嘉義縣民雄鄉中樂路(民雄火車站旁)",
    "hours": "24 小時",
    "tags": ["24小時", "台1線"],
    "fuelTypes": ["92無鉛", "95無鉛", "98無鉛", "柴油"],
    "image": "gas-station",
    "lat": 23.5497,
    "lng": 120.4318,
    "description": "民雄火車站周邊加油站,前往民雄金桔農場、民雄鬼屋等景點前可先於此補給。"
  },
  {
    "id": "gas-007",
    "type": "gas",
    "name": "台塑 朴子站",
    "category": "台塑",
    "address": "嘉義縣朴子市祥和一路",
    "hours": "06:00–23:00",
    "tags": ["公路", "往東石、布袋"],
    "fuelTypes": ["92無鉛", "95無鉛", "98無鉛", "柴油"],
    "image": "gas-station",
    "lat": 23.4658,
    "lng": 120.2512,
    "description": "位於朴子市區往東石、布袋方向公路旁,自駕前往濱海景點的中繼補給站。"
  }
]
