[
  {
    "id": "ubike-001",
    "type": "youbike",
    "name": "YouBike微笑單車-嘉義火車站",
    "category": "YouBike站點",
    "address": "嘉義市東區中山路1號前",
    "hours": "24 小時",
    "totalDocks": 40,
    "availableBikes": 18,
    "availableDocks": 20,
    "tags": ["轉乘", "市區"],
    "image": "bike-station",
    "lat": 23.4806,
    "lng": 120.4442,
    "description": "鄰近嘉義火車站出口,適合轉乘台鐵後接續騎乘至市區各景點。"
  },
  {
    "id": "ubike-002",
    "type": "youbike",
    "name": "YouBike微笑單車-文化路夜市",
    "category": "YouBike站點",
    "address": "嘉義市東區文化路與中山路口",
    "hours": "24 小時",
    "totalDocks": 30,
    "availableBikes": 6,
    "availableDocks": 22,
    "tags": ["夜市", "市區"],
    "image": "bike-station",
    "lat": 23.4795,
    "lng": 120.4507,
    "description": "緊鄰文化路觀光夜市,是逛完夜市後最方便的還車地點。"
  },
  {
    "id": "ubike-003",
    "type": "youbike",
    "name": "YouBike微笑單車-嘉義公園",
    "category": "YouBike站點",
    "address": "嘉義市東區公園街42號對面",
    "hours": "24 小時",
    "totalDocks": 24,
    "availableBikes": 15,
    "availableDocks": 8,
    "tags": ["公園", "親子"],
    "image": "bike-station",
    "lat": 23.4854,
    "lng": 120.4529,
    "description": "位於嘉義公園入口,適合租借單車遊園或前往射日塔、忠烈祠等景點。"
  },
  {
    "id": "ubike-004",
    "type": "youbike",
    "name": "YouBike微笑單車-蘭潭風景區",
    "category": "YouBike站點",
    "address": "嘉義市東區小雅路蘭潭風景區入口",
    "hours": "24 小時",
    "totalDocks": 20,
    "availableBikes": 11,
    "availableDocks": 9,
    "tags": ["湖景", "自行車道"],
    "image": "bike-station",
    "lat": 23.4715,
    "lng": 120.4671,
    "description": "銜接環潭自行車道,是遊蘭潭最推薦的騎乘起點。"
  },
  {
    "id": "ubike-005",
    "type": "youbike",
    "name": "YouBike微笑單車-嘉義大學蘭潭校區",
    "category": "YouBike站點",
    "address": "嘉義市東區學府路300號",
    "hours": "24 小時",
    "totalDocks": 28,
    "availableBikes": 20,
    "availableDocks": 8,
    "tags": ["校園", "轉乘"],
    "image": "bike-station",
    "lat": 23.4736,
    "lng": 120.4649,
    "description": "位於嘉義大學校門口,提供師生與遊客借還車服務。"
  },
  {
    "id": "ubike-006",
    "type": "youbike",
    "name": "YouBike微笑單車-高鐵嘉義站",
    "category": "YouBike站點",
    "address": "嘉義縣太保市高鐵路1號前",
    "hours": "24 小時",
    "totalDocks": 36,
    "availableBikes": 25,
    "availableDocks": 11,
    "tags": ["轉乘", "高鐵"],
    "image": "bike-station",
    "lat": 23.4590,
    "lng": 120.3182,
    "description": "緊鄰高鐵嘉義站出口,方便旅客轉乘單車前往鄰近景點。"
  },
  {
    "id": "ubike-007",
    "type": "youbike",
    "name": "YouBike微笑單車-民雄火車站",
    "category": "YouBike站點",
    "address": "嘉義縣民雄鄉中樂路民雄火車站前",
    "hours": "24 小時",
    "totalDocks": 20,
    "availableBikes": 9,
    "availableDocks": 11,
    "tags": ["轉乘", "民雄"],
    "image": "bike-station",
    "lat": 23.5500,
    "lng": 120.4319,
    "description": "民雄火車站前站點,騎乘可達民雄金桔農場、民雄鬼屋等鄉內景點。"
  },
  {
    "id": "ubike-008",
    "type": "youbike",
    "name": "YouBike微笑單車-朴子市區",
    "category": "YouBike站點",
    "address": "嘉義縣朴子市開元路(配天宮周邊)",
    "hours": "24 小時",
    "totalDocks": 18,
    "availableBikes": 12,
    "availableDocks": 6,
    "tags": ["朴子", "廟口"],
    "image": "bike-station",
    "lat": 23.4646,
    "lng": 120.2480,
    "description": "配天宮周邊站點,適合租借單車遊覽朴子老街與配天宮商圈。"
  }
]
